{
"type": "FeatureCollection",
"name": "daaras",
"crs": { "type": "name", "properties": { "name": "urn:ogc:def:crs:OGC:1.3:CRS84" } },
"features": [
{ "type": "Feature", "properties": { "Départeme": "SAINT-LOUIS", "Commune": "SAINT LOUIS", "localite": "Gokh mbadj", "nom": "Daara ghoulamou rassoul", "type_lieu_": "daara", "TYPE": null, "coordonnee": "16.0485184", "coordonn_1": "-16.5058016" }, "geometry": { "type": "Point", "coordinates": [ -16.505772590939255, 16.048407510941232 ] } },
{ "type": "Feature", "properties": { "Départeme": "SAINT-LOUIS", "Commune": "SAINT LOUIS", "localite": "Gokh madji", "nom": "Daara ghoulamou ( féminine)", "type_lieu_": "daara", "TYPE": null, "coordonnee": "16.0487083", "coordonn_1": "-16.5067095" }, "geometry": { "type": "Point", "coordinates": [ -16.506613046140188, 16.048744234887099 ] } },
{ "type": "Feature", "properties": { "Départeme": "SAINT-LOUIS", "Commune": "SAINT LOUIS", "localite": "Gokh mbadj", "nom": "Daara serigne lamine ndiaye", "type_lieu_": "daara", "TYPE": null, "coordonnee": "16.040796", "coordonn_1": "-16.5053361" }, "geometry": { "type": "Point", "coordinates": [ -16.5053361, 16.040796 ] } },
{ "type": "Feature", "properties": { "Départeme": "SAINT-LOUIS", "Commune": "SAINT LOUIS", "localite": "Gokh mbadj", "nom": "Daara idrissa mbengue", "type_lieu_": "daara", "TYPE": null, "coordonnee": "16.0417443", "coordonn_1": "-16.5056308" }, "geometry": { "type": "Point", "coordinates": [ -16.5056308, 16.0417443 ] } },
{ "type": "Feature", "properties": { "Départeme": "SAINT-LOUIS", "Commune": "SAINT LOUIS", "localite": "Santhiaba", "nom": "Daara baye wade", "type_lieu_": "daara", "TYPE": null, "coordonnee": "16.0374507", "coordonn_1": "-16.5087986" }, "geometry": { "type": "Point", "coordinates": [ -16.508786425959681, 16.037428280882853 ] } },
{ "type": "Feature", "properties": { "Départeme": "SAINT-LOUIS", "Commune": "SAINT LOUIS", "localite": "Santhiaba", "nom": "Daara Guinée Bissau", "type_lieu_": "daara", "TYPE": null, "coordonnee": "16.0374556", "coordonn_1": "-16.5074752" }, "geometry": { "type": "Point", "coordinates": [ -16.507493019361025, 16.037480030405131 ] } },
{ "type": "Feature", "properties": { "Départeme": "SAINT-LOUIS", "Commune": "SAINT LOUIS", "localite": "Santhiaba", "nom": "Daara serigne moustapha ndiaye bassa", "type_lieu_": "daara", "TYPE": null, "coordonnee": "16.0331757", "coordonn_1": "-16.5076798" }, "geometry": { "type": "Point", "coordinates": [ -16.507727945525971, 16.033195276835972 ] } },
{ "type": "Feature", "properties": { "Départeme": "SAINT-LOUIS", "Commune": "SAINT LOUIS", "localite": "Santhiaba", "nom": "Daara abdou majib diop", "type_lieu_": "daara", "TYPE": null, "coordonnee": "16.0330449", "coordonn_1": "-16.5085055" }, "geometry": { "type": "Point", "coordinates": [ -16.5085055, 16.0330449 ] } },
{ "type": "Feature", "properties": { "Départeme": "SAINT-LOUIS", "Commune": "SAINT LOUIS", "localite": "Santhiaba", "nom": "Daara aliou diallo", "type_lieu_": "daara", "TYPE": null, "coordonnee": "16.0335315", "coordonn_1": "-16.5086842" }, "geometry": { "type": "Point", "coordinates": [ -16.5086842, 16.0335315 ] } },
{ "type": "Feature", "properties": { "Départeme": "SAINT-LOUIS", "Commune": "GANDON", "localite": "Djiougop", "nom": "Darah", "type_lieu_": null, "TYPE": null, "coordonnee": "16.0343712", "coordonn_1": "-16.4458976" }, "geometry": { "type": "Point", "coordinates": [ -16.4458976, 16.0343712 ] } },
{ "type": "Feature", "properties": { "Départeme": "SAINT-LOUIS", "Commune": "SAINT LOUIS", "localite": "Nord", "nom": "Darra nord de Serigne adi", "type_lieu_": null, "TYPE": null, "coordonnee": "16.0312962", "coordonn_1": "-16.5035759" }, "geometry": { "type": "Point", "coordinates": [ -16.503549619020365, 16.031332939332977 ] } },
{ "type": "Feature", "properties": { "Départeme": "SAINT-LOUIS", "Commune": "SAINT LOUIS", "localite": "Sor 15 m", "nom": "Daara Serigne Mor Diop", "type_lieu_": null, "TYPE": null, "coordonnee": "15.9926939", "coordonn_1": "-16.4883169" }, "geometry": { "type": "Point", "coordinates": [ -16.4883169, 15.9926939 ] } },
{ "type": "Feature", "properties": { "Départeme": "SAINT-LOUIS", "Commune": "SAINT LOUIS", "localite": "Sor Diagne", "nom": "Daara Habib Ka", "type_lieu_": null, "TYPE": null, "coordonnee": "15.9908383", "coordonn_1": "-16.4875237" }, "geometry": { "type": "Point", "coordinates": [ -16.4875237, 15.9908383 ] } },
{ "type": "Feature", "properties": { "Départeme": "SAINT-LOUIS", "Commune": "SAINT LOUIS", "localite": "Sor Diagne khar yalla", "nom": "Daara Mansour Diop", "type_lieu_": null, "TYPE": null, "coordonnee": "15.9899099", "coordonn_1": "-16.490947" }, "geometry": { "type": "Point", "coordinates": [ -16.490935354764567, 15.989936441181831 ] } },
{ "type": "Feature", "properties": { "Départeme": "SAINT-LOUIS", "Commune": "SAINT LOUIS", "localite": "Sor Khar Yalla", "nom": "Daara Aliou Kandé", "type_lieu_": null, "TYPE": null, "coordonnee": "15.989608", "coordonn_1": "-16.4920538" }, "geometry": { "type": "Point", "coordinates": [ -16.4920538, 15.989608 ] } },
{ "type": "Feature", "properties": { "Départeme": "SAINT-LOUIS", "Commune": "SAINT LOUIS", "localite": "Khar Yalla", "nom": "Daara Ma Aichatou Dianka", "type_lieu_": null, "TYPE": null, "coordonnee": "15.990265", "coordonn_1": "-16.4926433" }, "geometry": { "type": "Point", "coordinates": [ -16.4926433, 15.990265 ] } },
{ "type": "Feature", "properties": { "Départeme": "SAINT-LOUIS", "Commune": "SAINT LOUIS", "localite": "Sor Khar yalla", "nom": "Daara makhtar fall", "type_lieu_": null, "TYPE": null, "coordonnee": "15.991721", "coordonn_1": "-16.4927424" }, "geometry": { "type": "Point", "coordinates": [ -16.492681227727648, 15.991702949335263 ] } },
{ "type": "Feature", "properties": { "Départeme": "SAINT-LOUIS", "Commune": "SAINT LOUIS", "localite": "Sor Daga 2", "nom": "Daara Serigne Mbaye Diop", "type_lieu_": null, "TYPE": null, "coordonnee": "15.9963133", "coordonn_1": "-16.492285" }, "geometry": { "type": "Point", "coordinates": [ -16.492366492833554, 15.996261716857035 ] } },
{ "type": "Feature", "properties": { "Départeme": "SAINT-LOUIS", "Commune": "SAINT LOUIS", "localite": "Guinaw Rail", "nom": "Daara aladji mbabou Ndiaye", "type_lieu_": null, "TYPE": null, "coordonnee": "15.9949772", "coordonn_1": "-16.4862299" }, "geometry": { "type": "Point", "coordinates": [ -16.486205581418549, 15.994944303921301 ] } },
{ "type": "Feature", "properties": { "Départeme": "SAINT-LOUIS", "Commune": "SAINT LOUIS", "localite": "Pikine", "nom": "Daara oustaz fall", "type_lieu_": null, "TYPE": null, "coordonnee": "16.001717", "coordonn_1": "-16.4935232" }, "geometry": { "type": "Point", "coordinates": [ -16.493276566416522, 16.001801582667916 ] } },
{ "type": "Feature", "properties": { "Départeme": "SAINT-LOUIS", "Commune": "SAINT LOUIS", "localite": "Pikine bas Sénégal", "nom": "Daara nafissatou Oumar", "type_lieu_": null, "TYPE": null, "coordonnee": "16.007786", "coordonn_1": "-16.4954169" }, "geometry": { "type": "Point", "coordinates": [ -16.495439440073593, 16.007788922597172 ] } },
{ "type": "Feature", "properties": { "Départeme": "SAINT-LOUIS", "Commune": "SAINT LOUIS", "localite": "Pikine 700", "nom": "Daara masdji Mahda", "type_lieu_": null, "TYPE": null, "coordonnee": "15.9915261", "coordonn_1": "-16.4974489" }, "geometry": { "type": "Point", "coordinates": [ -16.4974489, 15.9915261 ] } },
{ "type": "Feature", "properties": { "Départeme": "SAINT-LOUIS", "Commune": "SAINT LOUIS", "localite": "Pikine 700 fass ngom", "nom": "Daara Moustapha Diop", "type_lieu_": null, "TYPE": null, "coordonnee": "15.9980564", "coordonn_1": "-16.4965727" }, "geometry": { "type": "Point", "coordinates": [ -16.4965727, 15.9980564 ] } },
{ "type": "Feature", "properties": { "Départeme": "SAINT-LOUIS", "Commune": "SAINT LOUIS", "localite": "Medina courses", "nom": "Dara Mouhamadou IBN ABDOULAYE Koïta", "type_lieu_": null, "TYPE": null, "coordonnee": "16.0114784", "coordonn_1": "-16.4876115" }, "geometry": { "type": "Point", "coordinates": [ -16.487585864642462, 16.011475886573521 ] } },
{ "type": "Feature", "properties": { "Départeme": null, "Commune": null, "localite": null, "nom": null, "type_lieu_": null, "TYPE": null, "coordonnee": null, "coordonn_1": null }, "geometry": { "type": "Point", "coordinates": [ -16.506224457679568, 16.023719963296191 ] } },
{ "type": "Feature", "properties": { "Départeme": null, "Commune": null, "localite": null, "nom": "Daara Mohsin Diop", "type_lieu_": null, "TYPE": null, "coordonnee": null, "coordonn_1": null }, "geometry": { "type": "Point", "coordinates": [ -16.508843197858312, 16.029474058943297 ] } }
]
}
