{
"type": "FeatureCollection",
"name": "population-quartiers",
"crs": { "type": "name", "properties": { "name": "urn:ogc:def:crs:OGC:1.3:CRS84" } },
"features": [
{ "type": "Feature", "properties": { "Nom_quarti": "TENDJIGUENE\n", "x_coord": 340204.184832, "y_coor": 1772699.20469, "POPULATION": 5558 }, "geometry": { "type": "Point", "coordinates": [ -16.493606470136434, 16.028826473772568 ] } },
{ "type": "Feature", "properties": { "Nom_quarti": "BALACOS\n", "x_coord": 340404.76987600001, "y_coor": 1772426.92612, "POPULATION": 4457 }, "geometry": { "type": "Point", "coordinates": [ -16.491713772176556, 16.026378851335934 ] } },
{ "type": "Feature", "properties": { "Nom_quarti": "Ndiolofene Nord", "x_coord": 341024.40095799998, "y_coor": 1772126.61687, "POPULATION": 6194 }, "geometry": { "type": "Point", "coordinates": [ -16.485903481225463, 16.023705038459195 ] } },
{ "type": "Feature", "properties": { "Nom_quarti": "Ndiolofene Sud", "x_coord": 340912.64066500001, "y_coor": 1771734.4423199999, "POPULATION": 3253 }, "geometry": { "type": "Point", "coordinates": [ -16.486921566734186, 16.020153591810899 ] } },
{ "type": "Feature", "properties": { "Nom_quarti": "Leona", "x_coord": 340153.02646199998, "y_coor": 1771267.3669400001, "POPULATION": 7666 }, "geometry": { "type": "Point", "coordinates": [ -16.493988209058326, 16.015883193387157 ] } },
{ "type": "Feature", "properties": { "Nom_quarti": "HLM", "x_coord": 339785.890228, "y_coor": 1771417.6719, "POPULATION": 2931 }, "geometry": { "type": "Point", "coordinates": [ -16.497428884754267, 16.017217641065027 ] } },
{ "type": "Feature", "properties": { "Nom_quarti": "Eaux Claires", "x_coord": 340361.10945, "y_coor": 1770876.60932, "POPULATION": 6497 }, "geometry": { "type": "Point", "coordinates": [ -16.492017628698989, 16.012365315925681 ] } },
{ "type": "Feature", "properties": { "Nom_quarti": "Diaminar", "x_coord": 340596.32979599998, "y_coor": 1770131.2843899999, "POPULATION": 7455 }, "geometry": { "type": "Point", "coordinates": [ -16.489769796833095, 16.005644829966489 ] } },
{ "type": "Feature", "properties": { "Nom_quarti": "Guinaw ray", "x_coord": 341025.842993, "y_coor": 1769407.3039800001, "POPULATION": 17876 }, "geometry": { "type": "Point", "coordinates": [ -16.485708219129666, 15.999129761327563 ] } },
{ "type": "Feature", "properties": { "Nom_quarti": "Pikine Bas senegal", "x_coord": 339879.13847100001, "y_coor": 1769459.7743, "POPULATION": 14876 }, "geometry": { "type": "Point", "coordinates": [ -16.496425759441518, 15.999529602009101 ] } },
{ "type": "Feature", "properties": { "Nom_quarti": "Pikine Tableau walo", "x_coord": 340243.54139199998, "y_coor": 1769827.6842400001, "POPULATION": 24159 }, "geometry": { "type": "Point", "coordinates": [ -16.493045728026637, 16.002878208773019 ] } },
{ "type": "Feature", "properties": { "Nom_quarti": "Pikine Sor daga", "x_coord": 340555.06283299997, "y_coor": 1769176.6805799999, "POPULATION": 11553 }, "geometry": { "type": "Point", "coordinates": [ -16.490091420853741, 15.997015079700109 ] } },
{ "type": "Feature", "properties": { "Nom_quarti": "Pikine Sor diagne", "x_coord": 340331.86018100003, "y_coor": 1767908.7224399999, "POPULATION": 15570 }, "geometry": { "type": "Point", "coordinates": [ -16.492091837115471, 15.985541644134544 ] } },
{ "type": "Feature", "properties": { "Nom_quarti": "Haut Nord", "x_coord": 339090.10159600002, "y_coor": 1773371.0464900001, "POPULATION": 1790 }, "geometry": { "type": "Point", "coordinates": [ -16.504062717008779, 16.034825337124165 ] } },
{ "type": "Feature", "properties": { "Nom_quarti": "Nord centre", "x_coord": 339013.43813999998, "y_coor": 1772667.1530899999, "POPULATION": 3037 }, "geometry": { "type": "Point", "coordinates": [ -16.504731411323977, 16.028459050330952 ] } },
{ "type": "Feature", "properties": { "Nom_quarti": "SUD", "x_coord": 338949.72155000002, "y_coor": 1772027.71795, "POPULATION": 2096 }, "geometry": { "type": "Point", "coordinates": [ -16.505283470264747, 16.02267613534163 ] } },
{ "type": "Feature", "properties": { "Nom_quarti": "Goxumbacc", "x_coord": 338762.56039499998, "y_coor": 1774370.0855399999, "POPULATION": 22175 }, "geometry": { "type": "Point", "coordinates": [ -16.50719142891332, 16.043832395491773 ] } },
{ "type": "Feature", "properties": { "Nom_quarti": "Haut Ndar toute", "x_coord": 338664.70410099998, "y_coor": 1773382.3421400001, "POPULATION": 6297 }, "geometry": { "type": "Point", "coordinates": [ -16.508038782992845, 16.034899498660565 ] } },
{ "type": "Feature", "properties": { "Nom_quarti": "Bas Ndar toute", "x_coord": 338633.77699599997, "y_coor": 1772672.4561099999, "POPULATION": 3355 }, "geometry": { "type": "Point", "coordinates": [ -16.508279554469532, 16.028482059202727 ] } },
{ "type": "Feature", "properties": { "Nom_quarti": "Guet Ndar Lodo", "x_coord": 338618.07486599998, "y_coor": 1772204.6513, "POPULATION": 7371 }, "geometry": { "type": "Point", "coordinates": [ -16.508394504266409, 16.024253363558358 ] } },
{ "type": "Feature", "properties": { "Nom_quarti": "Guet Ndar Dakk", "x_coord": 338546.63777500001, "y_coor": 1771158.12607, "POPULATION": 10352 }, "geometry": { "type": "Point", "coordinates": [ -16.508990949047035, 16.014790967738957 ] } },
{ "type": "Feature", "properties": { "Nom_quarti": "Hydrobase", "x_coord": 338454.73094600003, "y_coor": 1769331.57602, "POPULATION": 6175 }, "geometry": { "type": "Point", "coordinates": [ -16.509725686268073, 15.998277939368412 ] } },
{ "type": "Feature", "properties": { "Nom_quarti": "Khor Usine", "x_coord": 342736.417097, "y_coor": 1772960.3337900001, "POPULATION": 9155 }, "geometry": { "type": "Point", "coordinates": [ -16.469960730014105, 16.031349857758585 ] } },
{ "type": "Feature", "properties": { "Nom_quarti": "Khor Mission", "x_coord": 342574.185115, "y_coor": 1773220.8670699999, "POPULATION": 1057 }, "geometry": { "type": "Point", "coordinates": [ -16.471494043529304, 16.033694002282974 ] } },
{ "type": "Feature", "properties": { "Nom_quarti": "Bango Nord", "x_coord": 344833.5679, "y_coor": 1776259.2992499999, "POPULATION": 9155 }, "geometry": { "type": "Point", "coordinates": [ -16.450578772406288, 16.061297543655218 ] } },
{ "type": "Feature", "properties": { "Nom_quarti": "Bango Sud", "x_coord": 344383.14776199998, "y_coor": 1774801.3659900001, "POPULATION": 7317 }, "geometry": { "type": "Point", "coordinates": [ -16.454692864047932, 16.048093005965807 ] } },
{ "type": "Feature", "properties": { "Nom_quarti": "Ngallele Nord", "x_coord": 345523.56903800002, "y_coor": 1774605.56103, "POPULATION": 3601 }, "geometry": { "type": "Point", "coordinates": [ -16.444022005321841, 16.046395510260414 ] } },
{ "type": "Feature", "properties": { "Nom_quarti": "Ngallele sud", "x_coord": 345197.23651800002, "y_coor": 1773527.18218, "POPULATION": 1390 }, "geometry": { "type": "Point", "coordinates": [ -16.447001461555516, 16.03662911403508 ] } },
{ "type": "Feature", "properties": { "Nom_quarti": "Darou Medina marmyal", "x_coord": 341069.138584, "y_coor": 1773070.05516, "POPULATION": 6711 }, "geometry": { "type": "Point", "coordinates": [ -16.48554855794109, 16.03223409895563 ] } },
{ "type": "Feature", "properties": { "Nom_quarti": "Darou Route de khor", "x_coord": 341189.56803800003, "y_coor": 1772653.98101, "POPULATION": 10413 }, "geometry": { "type": "Point", "coordinates": [ -16.484395337060345, 16.028481689075907 ] } },
{ "type": "Feature", "properties": { "Nom_quarti": "Cité Niakh", "x_coord": 340937.720462, "y_coor": 1771247.2150399999, "POPULATION": 7008 }, "geometry": { "type": "Point", "coordinates": [ -16.486654608981453, 16.015751978291917 ] } },
{ "type": "Feature", "properties": { "Nom_quarti": "Medina course Paethieuly", "x_coord": 340857.03626700002, "y_coor": 1770620.8502, "POPULATION": 4711 }, "geometry": { "type": "Point", "coordinates": [ -16.487366608305781, 16.010086085495743 ] } },
{ "type": "Feature", "properties": { "Nom_quarti": "Diamaguene", "x_coord": 340056.35622999998, "y_coor": 1771928.54104, "POPULATION": 9824 }, "geometry": { "type": "Point", "coordinates": [ -16.494935995939436, 16.021852134734221 ] } }
]
}
